[{"station":"USC00519397","name":"WAIKIKI 717.2, HI US","latitude":21.2716,"longitude":-157.8168,"elevation":3.0},{"station":"USC00513117","name":"KANEOHE 838.1, HI US","latitude":21.4234,"longitude":-157.8015,"elevation":14.6},{"station":"USC00514830","name":"KUALOA RANCH HEADQUARTERS 886.9, HI US","latitude":21.5213,"longitude":-157.8374,"elevation":7.0},{"station":"USC00517948","name":"PEARL CITY, HI US","latitude":21.3934,"longitude":-157.9751,"elevation":11.9},{"station":"USC00518838","name":"UPPER WAHIAWA 874.3, HI US","latitude":21.4992,"longitude":-158.0111,"elevation":306.6},{"station":"USC00519523","name":"WAIMANALO EXPERIMENTAL FARM, HI US","latitude":21.33556,"longitude":-157.71139,"elevation":19.5},{"station":"USC00519281","name":"WAIHEE 837.5, HI US","latitude":21.45167,"longitude":-157.84889,"elevation":32.9},{"station":"USC00511918","name":"HONOLULU OBSERVATORY 702.2, HI US","latitude":21.3152,"longitude":-157.9992,"elevation":0.9},{"station":"USC00516128","name":"MANOA LYON ARBO 785.2, HI US","latitude":21.3331,"longitude":-157.8025,"elevation":152.4}]